{
"type": "FeatureCollection",
"name": "Recreation_centres",
"crs": { "type": "name", "properties": { "name": "urn:ogc:def:crs:OGC:1.3:CRS84" } },
"features": [
{ "type": "Feature", "properties": { "OBJECTID": 1, "Name": "Redfern Community Centre", "Address": "29-53 Hugo Street", "Address2": "", "Suburb": "Redfern", "Postcode": 2016, "PhoneNumber": "02 9288 5713", "URL": "https://www.cityofsydney.nsw.gov.au/community-centres/redfern-community-centre", "OpeningHours": "Monday to Friday 9am to 5pm, Weekends Available for bookings.", "Lat": -33.8903169365705, "Long": 151.198409720645 }, "geometry": { "type": "Point", "coordinates": [ 151.198409720645003, -33.8903169365705 ] } },
{ "type": "Feature", "properties": { "OBJECTID": 2, "Name": "Pyrmont Community Centre", "Address": "79a John Street", "Address2": "Corner of John and Mount Streets", "Suburb": "Pyrmont", "Postcode": 2009, "PhoneNumber": "02 9298 3134 or 02 9298 3130", "URL": "https://www.cityofsydney.nsw.gov.au/community-centres/pyrmont-community-centre", "OpeningHours": "Monday 9am to 9pm, Tuesday to Thursday 6.30am to 9pm, Friday 9am to 6pm, Saturday and Sunday 10am to 4pm.", "Lat": -33.867971803620101, "Long": 151.192282767682 }, "geometry": { "type": "Point", "coordinates": [ 151.192282767682002, -33.867971803620101 ] } },
{ "type": "Feature", "properties": { "OBJECTID": 3, "Name": "Ultimo Community Centre", "Address": "38-40 William Henry Street", "Address2": "", "Suburb": "Ultimo", "Postcode": 2007, "PhoneNumber": "02 9298 3111", "URL": "https://www.cityofsydney.nsw.gov.au/community-centres/ultimo-community-centre", "OpeningHours": "Monday to Friday 10am to 8pm, Saturday amd Sunday 10am to 4pm, Closed Public Holidays", "Lat": -33.877821984351002, "Long": 151.19802602896999 }, "geometry": { "type": "Point", "coordinates": [ 151.198026028969991, -33.877821984351002 ] } },
{ "type": "Feature", "properties": { "OBJECTID": 4, "Name": "King George V Recreation Centre", "Address": "15 Cumberland Street", "Address2": "", "Suburb": "The Rocks", "Postcode": 2000, "PhoneNumber": "02 9244 3600", "URL": "https://www.cityofsydney.nsw.gov.au/community-centres/king-george-v-kgv-recreation-centre", "OpeningHours": "Monday to Friday: 6am–9pm, Saturday and Sunday: 10am–4pm, Public holidays: Closed.", "Lat": -33.859701097206603, "Long": 151.206588164723 }, "geometry": { "type": "Point", "coordinates": [ 151.206588164723001, -33.859701097206603 ] } },
{ "type": "Feature", "properties": { "OBJECTID": 5, "Name": "Juanita Nielsen Community Centre", "Address": "31 Nicholson Street", "Address2": "Corner of Nicholson and Dowling Streets", "Suburb": "Woolloomooloo", "Postcode": 2011, "PhoneNumber": "02 8374 6323", "URL": "https://www.cityofsydney.nsw.gov.au/community-centres/juanita-nielsen-community-centre", "OpeningHours": "Monday and Wednesday: 6am–8pm, Tuesday: 9am–8pm, Thursday: 9am–8pm, Friday: 6am–6pm, Saturday: 10am–4pm, Sunday and public holidays: Closed.", "Lat": -33.870275909647802, "Long": 151.221136568611 }, "geometry": { "type": "Point", "coordinates": [ 151.221136568611001, -33.870275909647802 ] } },
{ "type": "Feature", "properties": { "OBJECTID": 6, "Name": "Perry Park Recreational Centre", "Address": "1B Maddox Street", "Address2": null, "Suburb": "Alexandria", "Postcode": 2015, "PhoneNumber": "02 9288 5651", "URL": "https://www.cityofsydney.nsw.gov.au/community-centres/perry-park-recreation-centre", "OpeningHours": null, "Lat": -33.907591591531002, "Long": 151.19598899920899 }, "geometry": { "type": "Point", "coordinates": [ 151.195988999208993, -33.907591591531002 ] } }
]
}
